,City,Cloudiness,Country,Date,Humidity,Lat,Lng,Max Temp,Wind Speed
0,san carlos de bariloche,20.0,AR,1569255540.0,32.0,-41.13,-71.31,55.4,8.05
1,avarua,100.0,CK,1569255538.0,88.0,-21.21,-159.78,66.2,3.36
2,mahebourg,40.0,MU,1569255541.0,73.0,-20.41,57.7,71.6,12.75
3,rikitea,100.0,PF,1569255541.0,75.0,-23.12,-134.97,68.26,15.99
4,saskylakh,90.0,RU,1569255542.0,86.0,71.97,114.09,30.82,5.03
5,port elizabeth,1.0,US,1569255542.0,58.0,39.31,-74.98,87.01,8.05
6,dubovskoye,100.0,RU,1569255542.0,65.0,47.41,42.76,49.36,1.74
7,yellowknife,75.0,CA,1569255424.0,75.0,62.45,-114.38,44.6,16.11
8,mataura,52.0,NZ,1569255542.0,84.0,-46.19,168.86,43.0,4.0
9,kasangulu,20.0,CD,1569255543.0,46.0,-4.59,15.17,93.2,6.93
10,ushuaia,75.0,AR,1569255543.0,87.0,-54.81,-68.31,46.4,9.17
11,stephenville,75.0,CA,1569255543.0,93.0,48.55,-58.59,55.99,17.22
12,hambantota,75.0,LK,1569255543.0,100.0,6.12,81.12,77.0,6.93
13,arraial do cabo,20.0,BR,1569255543.0,50.0,-22.97,-42.02,75.2,5.82
14,ankazoabo,4.0,MG,1569255543.0,27.0,-22.29,44.51,82.66,5.1
15,cabo san lucas,5.0,MX,1569255531.0,94.0,22.89,-109.91,84.99,2.24
16,port alfred,17.0,ZA,1569255544.0,76.0,-33.59,26.89,61.0,1.99
17,tiksi,100.0,RU,1569255544.0,96.0,71.64,128.87,36.76,4.79
18,kagadi,18.0,UG,1569255544.0,60.0,0.95,30.8,79.78,2.17
19,namatanai,100.0,PG,1569255544.0,80.0,-3.66,152.44,78.34,7.47
20,san juan,83.0,AR,1569255544.0,30.0,-31.54,-68.53,57.46,8.08
21,new norfolk,40.0,AU,1569255545.0,57.0,-42.78,147.06,50.0,16.11
22,albany,75.0,US,1569255495.0,54.0,42.65,-73.75,86.0,5.82
23,nishihara,20.0,JP,1569255545.0,74.0,35.74,139.53,84.0,23.04
24,kibungo,40.0,RW,1569255545.0,60.0,-2.14,30.55,73.4,9.17
25,nikolskoye,75.0,RU,1569255545.0,56.0,59.7,30.79,45.0,13.42
26,smyshlyayevka,64.0,RU,1569255546.0,85.0,53.75,47.73,35.86,11.25
27,rawson,31.0,AR,1569255546.0,31.0,-43.3,-65.11,64.12,21.18
28,clyde river,75.0,CA,1569255546.0,77.0,70.47,-68.59,32.0,6.93
29,thompson,40.0,CA,1569255268.0,77.0,55.74,-97.86,59.0,8.05
30,ponta delgada,40.0,PT,1569255547.0,88.0,37.73,-25.67,75.2,12.75
31,busselton,100.0,AU,1569255547.0,57.0,-33.64,115.35,53.01,10.49
32,atuona,70.0,PF,1569255547.0,80.0,-9.8,-139.03,78.7,19.6
33,ola,100.0,RU,1569255547.0,89.0,59.58,151.3,44.86,6.64
34,suntar,58.0,RU,1569255547.0,88.0,62.16,117.65,33.16,4.41
35,kapaa,75.0,US,1569255547.0,94.0,22.08,-159.32,78.8,3.36
36,muros,75.0,ES,1569255548.0,93.0,42.77,-9.06,68.0,18.34
37,torbay,90.0,CA,1569255548.0,77.0,47.66,-52.73,64.99,35.57
38,nanortalik,1.0,GL,1569255548.0,76.0,60.14,-45.24,40.9,2.91
39,starkville,75.0,US,1569255548.0,58.0,33.45,-88.82,87.01,4.7
40,punta arenas,75.0,CL,1569255548.0,66.0,-53.16,-70.91,51.8,12.75
41,yulara,90.0,AU,1569255549.0,36.0,-25.24,130.99,60.8,9.17
42,nagorsk,37.0,RU,1569255549.0,95.0,59.32,50.8,30.46,5.79
43,tuktoyaktuk,90.0,CA,1569255549.0,93.0,69.44,-133.03,37.4,6.93
44,nuuk,75.0,GL,1569255549.0,93.0,64.17,-51.74,39.2,6.93
45,dikson,100.0,RU,1569255549.0,84.0,73.51,80.55,35.5,21.45
46,pangnirtung,20.0,CA,1569255550.0,65.0,66.15,-65.72,39.2,3.36
47,lorengau,4.0,PG,1569255550.0,87.0,-2.02,147.27,78.88,7.83
48,litovko,32.0,RU,1569255550.0,65.0,49.24,135.18,49.9,14.72
49,mehamn,75.0,NO,1569255550.0,86.0,71.03,27.85,41.0,12.75
50,hobart,40.0,AU,1569255367.0,57.0,-42.88,147.33,50.0,16.11
51,esperance,100.0,AU,1569255551.0,87.0,-33.86,121.89,50.0,10.29
52,lasa,20.0,CY,1569255551.0,73.0,34.92,32.53,78.8,12.75
53,remedios,53.0,CO,1569255551.0,60.0,7.03,-74.7,78.34,2.77
54,hithadhoo,100.0,MV,1569255551.0,73.0,-0.6,73.08,81.22,4.5
55,mar del plata,2.0,AR,1569255551.0,42.0,-46.43,-67.52,59.8,19.3
56,qaqortoq,75.0,GL,1569255552.0,65.0,60.72,-46.03,46.4,6.93
57,nortelandia,17.0,BR,1569255552.0,30.0,-14.45,-56.8,100.84,4.18
58,cayenne,20.0,GF,1569255552.0,52.0,4.94,-52.33,91.4,3.36
59,muroto,98.0,JP,1569255552.0,89.0,33.37,134.14,69.52,2.89
60,hirara,90.0,JP,1569255553.0,79.0,24.8,125.28,77.98,18.23
61,kavieng,67.0,PG,1569255553.0,74.0,-2.57,150.8,82.48,8.21
62,mount gambier,75.0,AU,1569255553.0,100.0,-37.83,140.78,42.8,8.05
63,puerto ayora,82.0,EC,1569255553.0,88.0,-0.74,-90.35,69.01,7.0
64,salinas,90.0,US,1569255553.0,93.0,36.67,-121.66,64.99,5.82
65,san cristobal,1.0,HN,1569255553.0,69.0,14.68,-86.92,79.6,1.5
66,vaini,33.0,IN,1569255554.0,87.0,15.34,74.49,76.72,2.46
67,olkhovka,16.0,RU,1569255554.0,72.0,53.21,60.61,39.1,20.49
68,deputatskiy,90.0,RU,1569255554.0,98.0,69.3,139.9,27.58,1.83
69,freeport,40.0,BS,1569255554.0,74.0,26.54,-78.7,82.4,23.04
70,north bend,40.0,US,1569255554.0,100.0,43.41,-124.22,59.0,5.82
71,novosemeykino,40.0,RU,1569255555.0,93.0,53.37,50.35,35.6,13.42
72,souillac,90.0,FR,1569255555.0,72.0,45.6,-0.6,72.0,5.82
73,srednekolymsk,52.0,RU,1569255555.0,78.0,67.46,153.71,26.32,4.74
74,hilo,90.0,US,1569255555.0,88.0,19.71,-155.08,75.2,5.82
75,puerto escondido,40.0,MX,1569255555.0,69.0,15.86,-97.07,78.8,2.98
76,castro,90.0,CL,1569255556.0,87.0,-42.48,-73.76,48.2,6.93
77,husavik,10.0,CA,1569255556.0,58.0,50.56,-96.99,64.0,3.0
78,north vanlaiphai,99.0,IN,1569255556.0,97.0,23.13,93.07,68.26,1.9
79,fare,3.0,PF,1569255556.0,82.0,-16.7,-151.02,79.24,13.51
80,fort nelson,20.0,CA,1569255556.0,67.0,58.81,-122.69,41.0,4.7
81,bethel,1.0,US,1569255556.0,93.0,60.79,-161.76,39.2,9.17
82,bubaque,67.0,GW,1569255557.0,76.0,11.28,-15.83,81.22,8.08
83,elizabethton,40.0,US,1569255557.0,44.0,36.35,-82.21,82.0,9.17
84,lompoc,90.0,US,1569255294.0,100.0,34.64,-120.46,64.99,6.93
85,durango,5.0,MX,1569255557.0,67.0,24.02,-104.67,69.01,8.7
86,la asuncion,8.0,AR,1569255557.0,27.0,-26.05,-65.39,68.98,7.47
87,kambove,2.0,CD,1569255557.0,15.0,-10.88,26.6,89.86,4.45
88,richards bay,100.0,ZA,1569255557.0,71.0,-28.77,32.06,66.64,25.88
89,bluff,100.0,AU,1569255557.0,71.0,-23.58,149.07,66.1,4.16
90,dicabisagan,3.0,PH,1569255558.0,94.0,17.08,122.42,72.58,0.83
91,santa isabel do rio negro,100.0,BR,1569255558.0,97.0,-0.41,-65.02,72.22,3.76
92,hofn,75.0,IS,1569255558.0,93.0,64.25,-15.21,51.8,9.17
93,longyearbyen,75.0,NO,1569255558.0,78.0,78.22,15.63,35.6,1.12
94,lebu,72.0,ET,1569255559.0,87.0,8.96,38.73,60.52,4.56
95,glendive,1.0,US,1569255559.0,59.0,47.11,-104.71,66.2,16.11
96,gondar,75.0,PT,1569255559.0,72.0,41.82,-8.78,70.0,18.34
97,wilmington,1.0,US,1569255268.0,54.0,39.75,-75.55,87.01,5.82
98,maroantsetra,86.0,MG,1569255559.0,98.0,-15.43,49.74,64.3,4.83
99,verkhnetulomskiy,20.0,RU,1569255559.0,90.0,68.61,31.8,35.6,6.71
100,salem,1.0,US,1569255559.0,87.0,44.94,-123.03,59.0,3.18
101,ancud,90.0,CL,1569255560.0,87.0,-41.87,-73.83,48.2,6.93
102,morros,75.0,BR,1569255560.0,66.0,-2.87,-44.04,86.0,11.41
103,kavaratti,90.0,IN,1569255560.0,78.0,10.57,72.64,82.66,7.92
104,kharp,100.0,RU,1569255561.0,89.0,66.82,65.8,30.1,12.37
105,serra talhada,8.0,BR,1569255561.0,29.0,-7.99,-38.29,91.84,10.4
106,kabanjahe,80.0,ID,1569255561.0,45.0,3.1,98.49,84.0,1.57
107,talnakh,75.0,RU,1569255561.0,86.0,69.49,88.39,41.0,22.37
108,pisco,40.0,PE,1569255561.0,30.0,-13.71,-76.2,71.6,8.05
109,airai,73.0,TL,1569255562.0,89.0,-8.93,125.41,71.5,3.33
110,paamiut,100.0,GL,1569255562.0,67.0,61.99,-49.67,40.0,2.71
111,gushikawa,75.0,JP,1569255562.0,78.0,26.35,127.87,77.0,11.41
112,kodiak,1.0,US,1569255562.0,73.0,39.95,-94.76,72.0,6.93
113,touros,75.0,BR,1569255562.0,69.0,-5.2,-35.46,82.4,13.87
114,severo-yeniseyskiy,100.0,RU,1569255563.0,89.0,60.37,93.04,47.02,12.91
115,sibolga,4.0,ID,1569255563.0,82.0,1.74,98.78,81.58,11.05
116,beterou,99.0,BJ,1569255563.0,84.0,9.2,2.26,78.88,2.28
117,massena,90.0,US,1569255563.0,78.0,44.93,-74.89,75.2,11.41
118,gat,75.0,SN,1569255563.0,49.0,14.69,-16.54,93.2,9.37
119,jardim,39.0,BR,1569255564.0,32.0,-21.48,-56.15,89.5,8.46
120,hasaki,20.0,JP,1569255564.0,78.0,35.73,140.83,79.0,12.75
121,nhulunbuy,75.0,AU,1569255564.0,88.0,-12.18,136.78,73.4,3.36
122,kattivakkam,75.0,IN,1569255564.0,79.0,13.22,80.32,86.0,6.93
123,netrakona,100.0,BD,1569255564.0,71.0,24.88,90.72,78.34,3.98
124,kaitangata,31.0,NZ,1569255565.0,58.0,-46.28,169.85,46.0,11.01
125,poltava,71.0,UA,1569255565.0,32.0,49.59,34.55,53.14,4.76
126,troitsko-pechorsk,100.0,RU,1569255565.0,95.0,62.71,56.19,33.16,9.01
127,geraldton,90.0,CA,1569255565.0,76.0,49.72,-86.95,55.4,3.36
128,portmore,20.0,JM,1569255549.0,55.0,17.97,-76.87,87.8,4.7
129,saldanha,100.0,PT,1569255566.0,36.0,41.42,-6.55,72.76,7.7
130,sao filipe,38.0,CV,1569255566.0,83.0,14.9,-24.5,80.14,23.58
131,hamilton,90.0,CA,1569255429.0,73.0,43.26,-79.87,78.8,11.41
132,ponta do sol,36.0,BR,1569255566.0,51.0,-20.63,-46.0,75.82,14.36
133,barcelos,100.0,BR,1569255566.0,82.0,-0.97,-62.93,80.5,5.97
134,plant city,75.0,US,1569255567.0,58.0,28.02,-82.12,86.0,10.29
135,saint-augustin,90.0,CA,1569255567.0,100.0,45.63,-73.98,70.0,4.7
136,klaksvik,100.0,FO,1569255567.0,93.0,62.23,-6.59,53.6,23.04
137,abha,40.0,SA,1569255567.0,47.0,18.22,42.5,80.6,5.82
138,dunedin,22.0,NZ,1569255507.0,66.0,-45.87,170.5,46.0,1.99
139,ballina,90.0,IE,1569255568.0,100.0,54.11,-9.15,61.0,9.17
140,namibe,56.0,AO,1569255568.0,84.0,-15.19,12.15,68.26,10.65
141,tuatapere,93.0,NZ,1569255568.0,84.0,-46.13,167.69,43.0,4.0
142,deming,90.0,US,1569255568.0,60.0,32.27,-107.76,73.0,3.36
143,narsaq,75.0,GL,1569255568.0,65.0,60.91,-46.05,46.4,6.93
144,road town,75.0,VG,1569255402.0,70.0,18.42,-64.62,87.01,10.29
145,anchorage,40.0,US,1569255569.0,86.0,61.22,-149.89,41.0,3.36
146,saint george,40.0,GR,1569255569.0,50.0,39.45,22.34,78.8,8.05
147,bereznik,100.0,RU,1569255569.0,93.0,62.86,42.71,37.66,8.28
148,noyabrsk,100.0,RU,1569255569.0,81.0,63.2,75.45,36.58,28.45
149,bathsheba,75.0,BB,1569255570.0,83.0,13.22,-59.52,78.8,24.16
150,lillooet,90.0,CA,1569255570.0,93.0,50.69,-121.94,59.0,4.7
151,qaanaaq,100.0,GL,1569255570.0,72.0,77.48,-69.36,25.78,2.17
152,butaritari,100.0,KI,1569255570.0,66.0,3.07,172.79,84.64,6.69
153,bezhetsk,96.0,RU,1569255570.0,79.0,57.78,36.69,40.72,9.93
154,zemio,100.0,CF,1569255570.0,76.0,5.02,25.13,82.12,1.88
155,belle fourche,1.0,US,1569255571.0,52.0,44.67,-103.85,68.0,4.38
156,chagoda,30.0,RU,1569255571.0,75.0,59.16,35.33,38.38,5.53
157,ostrovnoy,100.0,RU,1569255572.0,81.0,68.05,39.51,37.12,21.56
158,kotelnich,93.0,RU,1569255572.0,89.0,58.31,48.34,32.44,5.32
159,marshall,1.0,US,1569255495.0,93.0,39.12,-93.2,73.0,4.7
160,bonavista,100.0,CA,1569255572.0,81.0,48.65,-53.11,62.01,21.0
161,cherskiy,100.0,RU,1569255572.0,92.0,68.75,161.3,28.12,3.62
162,kieta,100.0,PG,1569255572.0,83.0,-6.22,155.63,76.72,1.92
163,svetlogorsk,90.0,RU,1569255572.0,69.0,53.14,59.15,39.2,20.13
164,coquimbo,75.0,CL,1569255572.0,71.0,-29.95,-71.34,57.2,6.93
165,avera,1.0,US,1569255573.0,48.0,33.19,-82.53,87.8,5.82
166,bambous virieux,40.0,MU,1569255573.0,73.0,-20.34,57.76,71.6,12.75
167,cairo,20.0,EG,1569255389.0,48.0,30.05,31.24,86.0,13.87
168,iquitos,40.0,PE,1569255348.0,319.0,-3.75,-73.25,42.8,5.82
169,ina,54.0,JP,1569255573.0,97.0,35.83,137.95,71.01,1.68
170,katsuura,75.0,JP,1569255574.0,69.0,33.93,134.5,75.2,8.05
171,neryungri,100.0,RU,1569255574.0,96.0,56.66,124.71,31.72,12.8
172,lata,36.0,IN,1569255575.0,91.0,30.78,78.62,37.3,2.06
173,vila franca do campo,40.0,PT,1569255576.0,88.0,37.72,-25.43,75.2,12.75
174,shagonar,100.0,RU,1569255576.0,53.0,51.54,92.92,59.98,4.79
175,esso,97.0,RU,1569255576.0,83.0,55.93,158.7,33.16,4.07
176,kintinku,5.0,TZ,1569255576.0,54.0,-5.89,35.22,78.8,11.41
177,oleksandrivka,100.0,UA,1569255577.0,50.0,48.97,32.24,51.52,3.67
178,luau,82.0,CD,1569255577.0,35.0,-10.7,22.23,85.36,5.5
179,margate,40.0,AU,1569255577.0,57.0,-43.03,147.26,50.0,16.11
180,matagami,79.0,NG,1569255577.0,68.0,9.67,8.4,82.66,3.18
181,thinadhoo,99.0,MV,1569255579.0,73.0,0.53,72.93,83.38,9.1
182,aklavik,75.0,CA,1569255579.0,100.0,68.22,-135.01,39.2,3.36
183,aguimes,20.0,ES,1569255579.0,61.0,27.91,-15.45,79.0,27.51
184,tilichiki,100.0,RU,1569255579.0,95.0,60.47,166.1,40.54,3.22
185,kununurra,90.0,AU,1569255579.0,64.0,-15.77,128.74,75.2,8.05
186,avesta,20.0,SE,1569255580.0,66.0,60.15,16.18,55.4,5.82
187,sihor,100.0,IN,1569255580.0,78.0,21.72,71.96,83.02,3.44
188,bowen,64.0,AU,1569255580.0,93.0,-20.01,148.25,60.8,1.12
189,magadan,100.0,RU,1569255581.0,88.0,59.56,150.8,44.68,3.71
190,georgetown,75.0,GY,1569255552.0,62.0,6.8,-58.16,89.6,6.93
191,kholmogory,40.0,RU,1569255582.0,86.0,64.23,41.65,41.0,6.71
192,codrington,90.0,AU,1569255582.0,87.0,-28.95,153.24,64.4,4.7
193,berea,90.0,US,1569255560.0,94.0,37.57,-84.3,75.99,10.29
194,khatanga,91.0,RU,1569255582.0,57.0,71.98,102.47,36.58,16.69
195,liberty,90.0,US,1569255472.0,73.0,39.64,-84.93,79.0,8.05
196,taseyevo,99.0,RU,1569255582.0,75.0,57.22,94.9,60.16,16.53
197,pirojpur,100.0,BD,1569255584.0,84.0,22.58,89.97,80.14,6.04
198,bara,1.0,NG,1569255584.0,46.0,10.41,10.6,92.2,4.72
199,turukhansk,100.0,RU,1569255584.0,79.0,65.8,87.96,41.8,11.86
200,puerto padre,40.0,CU,1569255584.0,70.0,21.2,-76.61,86.0,2.24
201,tasiilaq,90.0,GL,1569255584.0,81.0,65.61,-37.64,44.6,31.09
202,grindavik,75.0,IS,1569255585.0,87.0,63.84,-22.43,53.6,4.7
203,vardo,1.0,US,1569255585.0,35.0,39.62,-77.74,89.01,10.29
204,bongandanga,94.0,CD,1569255585.0,55.0,1.51,21.07,88.42,0.63
205,toora-khem,97.0,RU,1569255585.0,49.0,52.47,96.11,54.04,2.17
206,saint-georges,100.0,CA,1569255585.0,100.0,46.12,-70.67,66.99,5.48
207,broome,40.0,GB,1569255586.0,52.0,52.47,1.45,68.0,9.17
208,victoria,75.0,BN,1569255300.0,83.0,5.28,115.24,84.2,17.18
209,severo-kurilsk,73.0,RU,1569255586.0,82.0,50.68,156.12,48.64,7.25
210,mogadishu,66.0,SO,1569255586.0,69.0,2.04,45.34,77.44,17.85
211,naze,57.0,NG,1569255586.0,65.0,5.43,7.07,86.44,2.33
212,sao joao da barra,75.0,BR,1569255586.0,50.0,-21.64,-41.05,75.2,17.22
213,pervomayskiy,39.0,RU,1569255586.0,65.0,53.24,40.29,43.06,8.1
214,asmara,12.0,ER,1569255587.0,36.0,15.34,38.93,85.36,7.36
215,sinnamary,6.0,GF,1569255587.0,77.0,5.38,-52.96,81.94,12.21
216,polyarnyy,20.0,RU,1569255587.0,75.0,69.2,33.45,35.6,6.71
217,chokurdakh,97.0,RU,1569255587.0,83.0,70.62,147.9,25.78,5.32
218,hualmay,99.0,PE,1569255587.0,93.0,-11.1,-77.61,61.06,11.79
219,cordoba,63.0,AR,1569255587.0,24.0,-27.78,-67.24,70.78,7.2
220,lucapa,79.0,AO,1569255588.0,37.0,-8.42,20.74,87.88,6.67
221,rabat,40.0,MA,1569255366.0,57.0,34.02,-6.83,75.2,17.22
222,bavly,100.0,RU,1569255588.0,84.0,54.4,53.24,36.04,15.26
223,yatou,40.0,CM,1569255588.0,70.0,3.63,9.81,87.8,6.93
224,leningradskiy,100.0,RU,1569255588.0,97.0,69.38,178.42,34.78,9.55
225,mosalsk,86.0,RU,1569255589.0,61.0,54.49,34.98,44.14,6.51
226,marawi,1.0,PH,1569255589.0,89.0,8.0,124.29,75.99,5.99
227,inhambane,40.0,MZ,1569255589.0,73.0,-23.87,35.38,77.0,11.41
228,salalah,75.0,OM,1569255589.0,74.0,17.01,54.1,82.4,9.17
229,aguia branca,100.0,BR,1569255589.0,66.0,-18.98,-40.74,69.7,11.54
230,trairi,43.0,BR,1569255590.0,30.0,-3.28,-39.27,95.62,8.97
231,ribeira grande,20.0,PT,1569255590.0,65.0,38.52,-28.7,77.0,12.75
232,saint anthony,1.0,US,1569255590.0,76.0,43.97,-111.68,54.0,7.07
233,derzhavinsk,100.0,KZ,1569255590.0,71.0,51.1,66.31,53.68,32.61
234,anadyr,40.0,RU,1569255590.0,92.0,64.73,177.51,28.4,2.24
235,tabora,20.0,TZ,1569255591.0,35.0,-5.02,32.81,84.2,7.29
236,puerto baquerizo moreno,90.0,EC,1569255591.0,88.0,-0.9,-89.6,69.8,11.41
237,ndjole,70.0,GA,1569255591.0,65.0,-0.18,10.76,86.44,4.9
238,waverly,1.0,US,1569255592.0,51.0,37.04,-77.1,89.01,6.93
239,fairbanks,1.0,US,1569255593.0,86.0,64.84,-147.72,36.0,2.73
240,sorong,53.0,ID,1569255593.0,96.0,-0.86,131.25,72.04,3.94
241,boa esperanca,54.0,BR,1569255593.0,39.0,-1.91,-60.0,95.26,2.3
242,rockingham,75.0,GB,1569255594.0,72.0,52.52,-0.72,66.99,12.75
243,barinas,55.0,VE,1569255465.0,62.0,8.64,-70.23,85.18,4.72
244,alice springs,90.0,AU,1569255595.0,58.0,-23.7,133.88,55.4,13.51
245,kahului,20.0,US,1569255595.0,83.0,20.89,-156.47,78.01,8.05
246,odlabari,75.0,IN,1569255595.0,88.0,26.83,88.62,78.8,3.36
247,mariestad,77.0,SE,1569255595.0,54.0,58.71,13.82,57.2,5.82
248,faya,40.0,SA,1569255596.0,47.0,18.39,42.45,80.6,5.82
249,inuvik,90.0,CA,1569255596.0,100.0,68.36,-133.71,39.2,8.05
250,puyo,75.0,EC,1569255596.0,54.0,-1.48,-78.0,80.6,6.93
251,betamcherla,92.0,IN,1569255597.0,79.0,15.47,78.17,81.58,2.19
252,houma,53.0,CN,1569255597.0,43.0,35.63,111.36,67.9,4.52
253,bilibino,55.0,RU,1569255597.0,97.0,68.06,166.44,16.24,1.59
254,madang,100.0,CN,1569255597.0,92.0,35.32,102.79,31.36,2.15
255,aksarka,100.0,RU,1569255597.0,98.0,66.56,67.8,32.98,14.58
256,nipawin,1.0,CA,1569255598.0,63.0,53.36,-104.02,62.6,14.99
257,chillicothe,90.0,US,1569255439.0,83.0,39.33,-82.98,78.01,12.75
258,bensonville,75.0,LR,1569255598.0,83.0,6.45,-10.61,80.6,14.99
259,pevek,100.0,RU,1569255599.0,79.0,69.7,170.27,35.14,13.47
260,laguna,40.0,BZ,1569255599.0,74.0,16.17,-88.94,86.0,4.7
261,fuling,75.0,CN,1569255599.0,65.0,29.71,107.39,70.96,3.8
262,manicore,26.0,BR,1569255599.0,44.0,-5.81,-61.3,94.36,2.77
263,caravelas,100.0,BR,1569255599.0,82.0,-17.73,-39.27,72.76,24.76
264,kathmandu,75.0,NP,1569255600.0,94.0,27.71,85.32,68.0,2.24
265,sept-iles,20.0,CA,1569255358.0,55.0,50.2,-66.38,63.0,17.22
266,port blair,100.0,IN,1569255349.0,89.0,11.67,92.75,79.24,20.58
267,northam,100.0,AU,1569255600.0,67.0,-31.65,116.67,57.2,3.36
268,niquero,12.0,CU,1569255600.0,71.0,20.04,-77.58,84.28,6.85
269,soyo,93.0,AO,1569255601.0,82.0,-6.13,12.37,75.82,9.86
270,saint-philippe,90.0,CA,1569255601.0,94.0,45.36,-73.48,72.0,12.75
271,biak,98.0,ID,1569255601.0,98.0,-0.91,122.88,63.4,3.09
272,los llanos de aridane,75.0,ES,1569255602.0,88.0,28.66,-17.92,71.6,8.05
273,mount isa,100.0,AU,1569255602.0,13.0,-20.73,139.49,73.4,13.87
274,gallup,90.0,US,1569255602.0,87.0,35.53,-108.74,50.0,6.29
275,ambilobe,79.0,MG,1569255602.0,63.0,-13.19,49.05,78.88,1.19
276,grand gaube,40.0,MU,1569255603.0,73.0,-20.01,57.66,71.6,12.75
277,wanning,75.0,AT,1569255603.0,93.0,48.64,13.53,57.99,11.41
278,arcachon,100.0,FR,1569255604.0,64.0,44.65,-1.18,71.6,3.36
279,becerril,56.0,CO,1569255604.0,71.0,9.7,-73.28,84.28,4.65
280,yokadouma,50.0,CM,1569255604.0,57.0,3.52,15.05,85.72,3.2
281,constitucion,5.0,MX,1569255563.0,67.0,23.99,-104.67,69.01,8.7
282,upernavik,100.0,GL,1569255605.0,83.0,72.79,-56.15,38.02,2.8
283,mayumba,85.0,GA,1569255606.0,85.0,-3.44,10.65,76.72,10.58
284,palu,16.0,ID,1569255606.0,88.0,-0.9,119.87,74.92,3.8
285,mpika,75.0,ZM,1569255606.0,16.0,-11.84,31.4,88.78,11.97
286,krasnyy kommunar,40.0,RU,1569255606.0,70.0,51.96,55.37,42.8,15.66
287,vysokovsk,40.0,RU,1569255606.0,60.0,56.32,36.55,42.8,11.18
288,pochutla,75.0,MX,1569255607.0,83.0,15.74,-96.47,86.0,3.13
289,altamont,20.0,CA,1569255607.0,63.0,49.4,-98.5,68.0,9.17
290,hammerfest,75.0,NO,1569255607.0,86.0,70.66,23.68,37.4,17.22
291,weligama,92.0,LK,1569255608.0,80.0,5.97,80.42,82.12,18.45
292,voloiac,97.0,RO,1569255608.0,36.0,44.62,23.1,73.99,4.14
293,charters towers,34.0,AU,1569255608.0,87.0,-20.07,146.27,59.62,4.09
294,canutama,63.0,BR,1569255609.0,42.0,-6.53,-64.38,92.74,3.15
295,norman wells,75.0,CA,1569255609.0,86.0,65.28,-126.83,41.0,4.7
296,harindanga,40.0,IN,1569255609.0,94.0,22.04,88.32,82.4,11.39
297,tromso,75.0,NO,1569255610.0,75.0,69.65,18.96,41.0,8.05
298,biryusinsk,1.0,RU,1569255610.0,62.0,55.96,97.82,61.24,9.69
299,berlevag,75.0,NO,1569255610.0,86.0,70.86,29.09,41.0,18.34
300,otukpo,43.0,NG,1569255610.0,69.0,7.19,8.13,85.9,4.72
301,yar-sale,100.0,RU,1569255611.0,98.0,66.83,70.83,37.12,7.83
302,tura,97.0,RU,1569255478.0,85.0,64.27,100.22,34.42,5.97
303,dingle,19.0,PH,1569255611.0,90.0,11.0,122.67,74.92,4.56
304,kalianget,20.0,ID,1569255612.0,69.0,-7.35,109.91,82.4,6.93
305,prince rupert,90.0,CA,1569255402.0,87.0,54.32,-130.32,50.0,14.99
306,kichmengskiy gorodok,49.0,RU,1569255612.0,87.0,59.99,45.81,32.26,4.52
307,teguise,20.0,ES,1569255613.0,54.0,29.06,-13.56,82.4,20.8
308,warrington,90.0,GB,1569255613.0,87.0,53.39,-2.59,63.0,13.87
309,kudahuvadhoo,95.0,MV,1569255613.0,79.0,2.67,72.89,82.3,14.03
310,neiafu,20.0,TO,1569255613.0,60.0,-18.65,-173.98,69.8,5.82
311,myanaung,81.0,MM,1569255613.0,90.0,18.28,95.32,74.92,2.51
312,gimli,2.0,CA,1569255614.0,58.0,50.63,-96.99,64.0,3.0
313,yerbogachen,75.0,RU,1569255614.0,69.0,61.28,108.01,37.48,10.33
314,calbuco,75.0,CL,1569255614.0,71.0,-41.77,-73.13,51.8,4.7
315,tshikapa,63.0,CD,1569255615.0,41.0,-6.42,20.79,90.94,3.49
316,sola,51.0,TZ,1569255615.0,22.0,-3.17,33.8,88.06,2.39
317,yanam,40.0,IN,1569255616.0,78.0,16.73,82.22,82.4,1.97
318,kapit,22.0,MY,1569255617.0,99.0,2.02,112.94,74.38,1.16
319,kargasok,23.0,RU,1569255617.0,68.0,59.06,80.87,41.44,7.85
320,guanica,75.0,PR,1569255617.0,74.0,17.97,-66.91,91.99,10.29
321,port hardy,90.0,CA,1569255618.0,93.0,50.7,-127.42,50.0,20.8
322,rio grande,20.0,BR,1569255618.0,49.0,-32.03,-52.1,68.0,12.75
323,kenora,20.0,CA,1569255618.0,72.0,49.76,-94.48,60.8,8.05
324,harper,75.0,US,1569255619.0,61.0,30.3,-99.24,87.01,9.17
325,nabire,24.0,ID,1569255619.0,99.0,-3.36,135.5,69.88,2.57
326,omsukchan,100.0,RU,1569255619.0,96.0,62.53,155.8,30.82,8.37
327,auki,1.0,NG,1569255619.0,33.0,12.18,6.51,93.46,7.47
328,ust-omchug,100.0,RU,1569255620.0,97.0,61.13,149.63,33.34,7.63
329,dali,49.0,CN,1569255620.0,45.0,34.79,109.94,68.98,3.29
330,kamaishi,100.0,JP,1569255620.0,94.0,39.28,141.86,60.88,29.89
331,goderich,95.0,CA,1569255620.0,90.0,43.74,-81.71,69.01,8.55
332,leticia,75.0,CO,1569255620.0,88.0,-4.21,-69.94,80.6,1.12
333,magaria,9.0,NE,1569255620.0,14.0,13.0,8.91,101.02,12.46
334,zhiryatino,20.0,RU,1569255621.0,45.0,53.22,33.73,48.2,8.95
335,bonthe,99.0,SL,1569255621.0,81.0,7.53,-12.5,79.78,11.3
336,teguldet,33.0,RU,1569255621.0,90.0,57.31,88.17,43.6,8.34
337,sann,40.0,PK,1569255621.0,55.0,26.04,68.14,91.4,4.7
338,hitoyoshi,100.0,JP,1569255621.0,74.0,32.2,130.77,74.2,14.43
339,san quintin,20.0,PH,1569255622.0,91.0,17.54,120.52,74.02,2.21
340,ahipara,100.0,NZ,1569255622.0,100.0,-35.17,173.16,57.99,33.87
341,ukiah,1.0,US,1569255622.0,77.0,39.15,-123.21,69.01,4.34
342,waitati,22.0,NZ,1569255622.0,66.0,-45.75,170.57,46.0,1.99
343,ko samui,20.0,TH,1569255622.0,83.0,9.54,99.94,80.6,13.11
344,saquena,99.0,PE,1569255623.0,51.0,-4.67,-73.52,89.86,3.24
345,alugan,99.0,PH,1569255623.0,94.0,12.22,125.48,75.28,2.3
346,irece,31.0,BR,1569255623.0,32.0,-11.3,-41.86,83.92,17.16
347,moose factory,90.0,CA,1569255623.0,93.0,51.26,-80.61,50.0,6.93
348,ilulissat,75.0,GL,1569255623.0,75.0,69.22,-51.1,41.0,8.05
349,shimoda,39.0,JP,1569255623.0,77.0,34.7,138.93,78.01,1.01
350,balod,100.0,IN,1569255624.0,84.0,20.73,81.21,79.42,6.93
351,mwinilunga,100.0,ZM,1569255624.0,23.0,-11.73,24.43,86.8,4.43
352,lazaro cardenas,65.0,MX,1569255624.0,64.0,28.39,-105.62,69.7,1.14
353,ahuimanu,90.0,US,1569255624.0,78.0,21.44,-157.84,82.4,9.17
354,brokopondo,40.0,SR,1569255624.0,59.0,5.06,-54.98,91.4,4.7
355,burriana,100.0,ES,1569255625.0,53.0,39.89,-0.08,82.0,6.93
356,carauari,100.0,BR,1569255625.0,45.0,-4.88,-66.9,93.1,1.77
357,linxia,100.0,CN,1569255625.0,71.0,35.6,103.21,49.36,5.57
358,severnyy-kospashskiy,74.0,RU,1569255626.0,70.0,59.09,57.8,34.0,1.01
359,penzance,75.0,GB,1569255626.0,100.0,50.12,-5.53,64.4,19.46
360,nome,75.0,US,1569255626.0,70.0,30.04,-94.42,89.01,5.93
361,hainburg,75.0,DE,1569255626.0,56.0,50.07,8.95,70.0,11.41
362,kurilsk,100.0,RU,1569255627.0,92.0,45.23,147.88,52.6,24.99
363,makakilo city,90.0,US,1569255627.0,100.0,21.35,-158.09,82.4,3.36
364,bandarbeyla,98.0,SO,1569255627.0,62.0,9.49,50.81,79.78,27.42
365,boa vista,75.0,BR,1569255628.0,62.0,2.82,-60.67,86.0,4.7
366,senno,40.0,RU,1569255628.0,70.0,57.76,27.95,44.6,6.71
367,saint-pierre,20.0,FR,1569255628.0,59.0,48.95,4.24,69.8,10.29
368,iqaluit,75.0,CA,1569255628.0,80.0,63.75,-68.52,39.2,13.87
369,paciran,50.0,ID,1569255628.0,83.0,-6.9,112.33,71.68,4.76
370,arkadak,81.0,RU,1569255628.0,68.0,51.94,43.49,41.98,7.4
371,teya,75.0,MX,1569255629.0,79.0,21.05,-89.07,88.0,6.93
372,umm kaddadah,85.0,SD,1569255629.0,22.0,13.6,26.69,97.06,6.85
373,muli,33.0,CN,1569255630.0,51.0,28.08,109.56,63.58,3.2
374,bismarck,1.0,US,1569255630.0,67.0,46.81,-100.78,66.99,3.36
375,dharchula,71.0,IN,1569255431.0,92.0,29.85,80.53,51.88,1.68
376,vestmanna,75.0,FO,1569255630.0,93.0,62.16,-7.17,53.6,23.04
377,madimba,40.0,CM,1569255630.0,70.0,4.42,9.93,87.8,6.93
378,peruibe,50.0,BR,1569255631.0,58.0,-24.32,-47.0,68.8,8.21
379,dzilam gonzalez,17.0,MX,1569255631.0,85.0,21.28,-88.93,81.94,11.52
380,sozimskiy,87.0,RU,1569255632.0,95.0,59.74,52.25,31.72,4.23
381,greencastle,40.0,US,1569255588.0,68.0,39.64,-86.86,75.99,10.29
382,high level,40.0,CA,1569255632.0,61.0,58.52,-117.13,48.2,9.17
383,breves,13.0,BR,1569255632.0,39.0,-1.68,-50.48,97.06,4.14
384,longonjo,93.0,AO,1569255632.0,18.0,-12.91,15.25,89.68,0.96
385,goma,75.0,CD,1569255632.0,47.0,-1.67,29.23,80.6,9.17
386,acapulco,75.0,MX,1569255633.0,83.0,16.86,-99.88,82.4,4.7
387,poum,75.0,MK,1569255633.0,82.0,41.28,20.71,62.6,3.36
388,mukhen,71.0,RU,1569255633.0,85.0,48.19,136.14,53.32,12.88
389,honningsvag,75.0,NO,1569255633.0,73.0,70.98,25.97,41.0,20.8
390,itarema,11.0,BR,1569255633.0,40.0,-2.92,-39.92,94.0,14.61
391,cuenca,75.0,EC,1569255634.0,52.0,-2.9,-79.0,64.4,10.29
392,meulaboh,92.0,ID,1569255634.0,75.0,4.14,96.13,82.3,3.27
393,manutuke,95.0,NZ,1569255634.0,60.0,-38.68,177.91,60.01,8.99
394,noumea,90.0,NC,1569255635.0,82.0,-22.28,166.46,73.99,1.12
395,manokwari,1.0,ID,1569255635.0,80.0,-0.87,134.08,73.12,3.89
396,burns lake,100.0,CA,1569255635.0,90.0,54.23,-125.76,37.12,5.79
397,iskateley,68.0,RU,1569255635.0,89.0,67.68,53.15,33.7,8.9
398,komsomolskiy,100.0,RU,1569255635.0,77.0,67.55,63.78,34.78,20.94
399,kuusamo,90.0,FI,1569255636.0,74.0,65.96,29.19,35.6,12.75
400,san joaquin,42.0,PH,1569255636.0,90.0,10.59,122.14,76.54,2.06
401,padang,38.0,ID,1569255637.0,81.0,-0.92,100.36,79.24,11.14
402,dhidhdhoo,100.0,MV,1569255637.0,75.0,6.88,73.1,83.56,12.77
403,boddam,75.0,GB,1569255637.0,72.0,57.47,-1.78,62.6,13.87
404,miri,9.0,NG,1569255637.0,40.0,10.31,9.75,91.3,8.23
405,raymondville,20.0,US,1569255384.0,78.0,37.34,-91.83,75.0,8.05
406,zaysan,46.0,KZ,1569255637.0,55.0,47.47,84.87,62.14,1.72
407,zhigansk,96.0,RU,1569255638.0,87.0,66.77,123.37,34.42,6.42
408,chilca,20.0,PE,1569255638.0,24.0,-13.22,-72.34,66.2,5.82
409,ludvika,20.0,SE,1569255639.0,66.0,60.15,15.18,52.0,5.82
