,City,Cloudiness,Country,Date,Humidity,Lat,Lng,Max Temp,Wind Speed
0,nishihara,75.0,JP,1569345161.0,88.0,35.74,139.53,75.99,6.93
1,busselton,13.0,AU,1569345161.0,71.0,-33.64,115.35,55.0,16.31
2,dunedin,49.0,NZ,1569345161.0,74.0,-45.87,170.5,44.01,1.99
3,cape town,20.0,ZA,1569345162.0,59.0,-33.93,18.42,70.0,18.34
4,kapaa,90.0,US,1569344896.0,78.0,22.08,-159.32,80.6,11.41
5,ushuaia,20.0,AR,1569345162.0,61.0,-54.81,-68.31,51.8,35.57
6,chernenko,30.0,UA,1569345162.0,32.0,47.23,37.74,48.68,6.6
7,cabo san lucas,5.0,MX,1569345103.0,69.0,22.89,-109.91,89.01,16.11
8,rikitea,82.0,PF,1569345162.0,71.0,-23.12,-134.97,69.74,10.58
9,seminole,1.0,US,1569345012.0,61.0,32.72,-102.64,82.4,8.05
10,roald,75.0,NO,1569345163.0,87.0,62.58,6.12,59.0,8.05
11,castro,40.0,CL,1569345163.0,72.0,-42.48,-73.76,60.8,5.82
12,ninh binh,1.0,VN,1569345163.0,72.0,20.25,105.97,69.38,3.62
13,yellowknife,20.0,CA,1569345163.0,80.0,62.45,-114.38,39.2,11.41
14,hobart,75.0,AU,1569345135.0,61.0,-42.88,147.33,46.4,11.41
15,mataura,86.0,NZ,1569345164.0,90.0,-46.19,168.86,42.01,8.01
16,birao,3.0,CF,1569345164.0,70.0,10.3,22.78,78.56,0.83
17,qiongshan,75.0,CN,1569345164.0,94.0,20.01,110.35,77.0,2.24
18,gondanglegi,30.0,ID,1569345164.0,95.0,-7.75,112.01,70.82,7.49
19,fortuna,1.0,US,1569345165.0,77.0,40.6,-124.16,64.99,3.36
20,longyearbyen,75.0,NO,1569345165.0,93.0,78.22,15.63,37.4,3.36
21,butaritari,90.0,KI,1569345165.0,72.0,3.07,172.79,83.78,8.66
22,gat,24.0,SN,1569345165.0,70.0,14.69,-16.54,89.6,8.05
23,coos bay,90.0,US,1569345165.0,82.0,43.37,-124.22,64.4,3.36
24,vaini,100.0,IN,1569345165.0,96.0,15.34,74.49,75.86,1.88
25,ondjiva,12.0,AO,1569345166.0,9.0,-17.07,15.73,80.18,7.85
26,nanortalik,100.0,GL,1569345166.0,74.0,60.14,-45.24,44.36,2.93
27,sterling,20.0,US,1569345145.0,47.0,39.0,-77.4,78.8,9.17
28,kahului,20.0,US,1569344896.0,65.0,20.89,-156.47,78.8,11.41
29,punta arenas,40.0,CL,1569345166.0,53.0,-53.16,-70.91,51.8,29.97
30,okhotsk,100.0,RU,1569345166.0,81.0,59.36,143.24,34.28,27.56
31,mayo,90.0,CA,1569345166.0,100.0,63.59,-135.9,26.6,2.19
32,hilo,90.0,US,1569345166.0,83.0,19.71,-155.08,75.2,4.7
33,sojat,10.0,IN,1569345166.0,71.0,25.92,73.67,81.44,8.61
34,liverpool,20.0,GB,1569345167.0,82.0,53.41,-2.98,64.4,6.93
35,chumikan,25.0,RU,1569345167.0,78.0,54.72,135.31,30.14,8.63
36,kailua,20.0,US,1569345167.0,69.0,21.39,-157.74,80.6,13.87
37,chapais,90.0,CA,1569345167.0,66.0,49.78,-74.86,53.6,4.7
38,charlestown,40.0,US,1569345167.0,50.0,41.38,-71.64,77.0,12.75
39,ribeira grande,20.0,PT,1569345167.0,60.0,38.52,-28.7,75.2,9.17
40,arraial do cabo,75.0,BR,1569345167.0,53.0,-22.97,-42.02,73.4,17.22
41,batagay-alyta,100.0,RU,1569345168.0,92.0,67.8,130.41,18.44,2.26
42,ponta do sol,13.0,BR,1569345168.0,36.0,-20.63,-46.0,84.5,3.29
43,tuktoyaktuk,90.0,CA,1569345168.0,93.0,69.44,-133.03,35.6,2.24
44,hofn,100.0,IS,1569345168.0,99.0,64.25,-15.21,41.12,5.21
45,saskylakh,100.0,RU,1569345168.0,93.0,71.97,114.09,36.44,10.38
46,ruidoso,1.0,US,1569345168.0,45.0,33.33,-105.67,78.01,2.68
47,santa marta,40.0,CO,1569345169.0,79.0,11.24,-74.21,84.2,10.29
48,saint-philippe,90.0,CA,1569345169.0,87.0,45.36,-73.48,63.0,7.52
49,waipawa,10.0,NZ,1569345169.0,87.0,-39.94,176.59,44.01,10.0
50,tripoli,20.0,GR,1569345169.0,78.0,37.51,22.37,73.99,2.95
51,soubre,98.0,CI,1569345169.0,95.0,5.79,-6.61,75.86,2.46
52,san simon de la laguna,20.0,MX,1569345169.0,63.0,19.3,-100.08,73.99,5.57
53,tabanan,40.0,ID,1569345170.0,88.0,-8.54,115.13,78.8,10.29
54,port elizabeth,1.0,US,1569344987.0,44.0,39.31,-74.98,80.01,9.17
55,hamilton,75.0,CA,1569345006.0,59.0,43.26,-79.87,72.0,13.87
56,pevek,100.0,RU,1569345170.0,96.0,69.7,170.27,34.46,16.06
57,bluff,90.0,AU,1569345170.0,96.0,-23.58,149.07,62.18,6.67
58,cercal,63.0,PT,1569345170.0,93.0,37.8,-8.67,72.0,5.01
59,new norfolk,75.0,AU,1569345032.0,61.0,-42.78,147.06,46.4,11.41
60,upernavik,100.0,GL,1569345170.0,95.0,72.79,-56.15,32.84,2.3
61,honiara,90.0,SB,1569345170.0,100.0,-9.43,159.96,71.6,2.24
62,deputatskiy,97.0,RU,1569345171.0,98.0,69.3,139.9,27.44,1.77
63,te anau,71.0,NZ,1569345171.0,73.0,-45.41,167.72,39.5,9.13
64,moose factory,1.0,CA,1569345171.0,72.0,51.26,-80.61,59.0,6.93
65,fairbanks,1.0,US,1569344911.0,86.0,64.84,-147.72,35.01,5.82
66,governador valadares,68.0,BR,1569345168.0,40.0,-18.85,-41.95,81.08,5.91
67,katsuura,75.0,JP,1569345171.0,73.0,33.93,134.5,71.6,9.17
68,hithadhoo,100.0,MV,1569345171.0,81.0,-0.6,73.08,79.64,18.45
69,abancay,40.0,PE,1569345172.0,328.0,-13.64,-72.88,37.4,11.41
70,sao filipe,100.0,CV,1569345172.0,80.0,14.9,-24.5,81.26,9.24
71,bambous virieux,40.0,MU,1569345172.0,88.0,-20.34,57.76,71.6,4.7
72,ossora,100.0,RU,1569345172.0,98.0,59.24,163.07,43.64,7.31
73,bredasdorp,50.0,ZA,1569345172.0,59.0,-34.53,20.04,62.6,16.11
74,pauini,97.0,BR,1569345173.0,36.0,-7.71,-67.0,96.38,4.12
75,guerrero negro,3.0,MX,1569345173.0,81.0,27.97,-114.04,69.74,8.93
76,kenai,40.0,US,1569345173.0,93.0,60.55,-151.26,41.0,4.7
77,kodiak,1.0,US,1569345173.0,69.0,39.95,-94.76,80.01,12.75
78,kangaatsiaq,100.0,GL,1569345173.0,87.0,68.31,-53.46,39.5,13.47
79,haverfordwest,75.0,GB,1569345173.0,93.0,51.8,-4.97,60.8,23.04
80,lagoa,20.0,PT,1569345174.0,69.0,37.14,-8.45,75.2,6.93
81,burlington,75.0,CA,1569344993.0,59.0,43.32,-79.8,72.0,13.87
82,simao,92.0,CN,1569345174.0,95.0,22.76,100.79,59.3,0.96
83,codrington,90.0,AU,1569345174.0,82.0,-28.95,153.24,59.0,1.3
84,paratinga,25.0,BR,1569345174.0,18.0,-12.69,-43.18,97.1,7.14
85,atbasar,15.0,KZ,1569345174.0,64.0,51.81,68.36,40.04,8.01
86,whitecourt,40.0,CA,1569345174.0,70.0,54.14,-115.68,48.2,8.05
87,norman wells,75.0,CA,1569345175.0,93.0,65.28,-126.83,37.4,10.29
88,nikolskoye,75.0,RU,1569345175.0,65.0,59.7,30.79,43.0,6.71
89,le port,66.0,FR,1569345001.0,53.0,42.87,1.37,73.99,3.0
90,avarua,28.0,CK,1569345175.0,72.0,-21.21,-159.78,64.4,4.7
91,east london,40.0,ZA,1569345175.0,59.0,-33.02,27.91,60.8,11.41
92,xichang,100.0,CN,1569345175.0,98.0,27.88,102.25,45.98,4.27
93,acapulco,90.0,MX,1569345176.0,78.0,16.86,-99.88,82.4,5.46
94,georgetown,75.0,GY,1569345075.0,70.0,6.8,-58.16,93.2,9.17
95,puerto ayora,40.0,EC,1569345176.0,61.0,-0.74,-90.35,78.8,13.87
96,severo-kurilsk,100.0,RU,1569345177.0,95.0,50.68,156.12,48.86,14.29
97,ouahigouya,65.0,BF,1569345177.0,36.0,13.58,-2.42,90.98,6.06
98,ixtapa,5.0,MX,1569345177.0,74.0,20.71,-105.21,88.0,6.76
99,albany,90.0,US,1569345177.0,68.0,42.65,-73.75,72.0,13.87
100,carutapera,21.0,BR,1569344969.0,62.0,-1.2,-46.02,85.4,11.1
101,lorengau,59.0,PG,1569345177.0,85.0,-2.02,147.27,78.92,7.87
102,tuy hoa,40.0,VN,1569345177.0,98.0,13.08,109.3,72.08,1.43
103,port alfred,52.0,ZA,1569345177.0,69.0,-33.59,26.89,60.01,4.0
104,constitucion,75.0,MX,1569345177.0,68.0,23.99,-104.67,71.01,3.36
105,bayir,75.0,TR,1569345178.0,65.0,37.27,28.22,77.0,10.29
106,torbay,90.0,CA,1569345178.0,81.0,47.66,-52.73,52.0,9.17
107,edd,43.0,ER,1569345178.0,65.0,13.93,41.69,86.66,11.63
108,esperance,17.0,AU,1569345178.0,41.0,-33.86,121.89,59.0,16.11
109,teguldet,76.0,RU,1569345177.0,89.0,57.31,88.17,44.0,6.6
110,sao joao da barra,90.0,BR,1569345103.0,56.0,-21.64,-41.05,73.4,11.41
111,tygda,31.0,RU,1569345179.0,74.0,53.11,126.33,33.02,3.58
112,qaanaaq,95.0,GL,1569345179.0,83.0,77.48,-69.36,23.12,5.17
113,chhatak,100.0,BD,1569345179.0,88.0,25.03,91.67,77.48,2.59
114,saldanha,25.0,PT,1569345179.0,56.0,41.42,-6.55,66.5,11.88
115,benalla,40.0,AU,1569345179.0,100.0,-36.55,145.99,44.01,3.36
116,kondinskoye,95.0,RU,1569345180.0,84.0,59.65,67.41,33.2,9.89
117,tiksi,100.0,RU,1569345180.0,83.0,71.64,128.87,32.48,7.31
118,muroto,38.0,JP,1569345180.0,87.0,33.37,134.14,65.42,4.56
119,moree,57.0,AU,1569345180.0,24.0,-29.46,149.84,48.2,5.82
120,ziro,100.0,IN,1569345180.0,99.0,27.54,93.82,56.6,1.77
121,rajula,1.0,IN,1569345180.0,88.0,21.04,71.44,77.12,6.69
122,port hardy,75.0,CA,1569345180.0,100.0,50.7,-127.42,51.8,2.24
123,saint george,75.0,GR,1569345181.0,88.0,39.45,22.34,75.2,3.74
124,naryan-mar,100.0,RU,1569345181.0,96.0,67.67,53.09,35.72,19.64
125,vila velha,20.0,BR,1569345181.0,48.0,-3.71,-38.6,87.8,16.11
126,geraldton,20.0,CA,1569345181.0,59.0,49.72,-86.95,66.2,10.29
127,newport,40.0,US,1569345181.0,50.0,41.49,-71.31,77.0,12.75
128,kavieng,100.0,PG,1569345182.0,68.0,-2.57,150.8,83.42,4.07
129,nadvoitsy,99.0,RU,1569345182.0,82.0,63.89,34.27,36.08,5.91
130,buala,100.0,SB,1569345183.0,85.0,-8.15,159.59,76.76,2.28
131,tezu,97.0,IN,1569345183.0,89.0,27.93,96.16,67.4,0.85
132,kimbe,100.0,PG,1569345183.0,92.0,-5.56,150.15,72.44,1.41
133,airai,15.0,TL,1569345183.0,85.0,-8.93,125.41,70.1,5.14
134,lebu,73.0,ET,1569345184.0,88.0,8.96,38.73,56.24,4.63
135,iskateley,100.0,RU,1569345184.0,96.0,67.68,53.15,35.72,19.64
136,goderich,3.0,CA,1569345184.0,63.0,43.74,-81.71,68.0,11.99
137,victoria,75.0,BN,1569345185.0,66.0,5.28,115.24,84.2,10.29
138,seoul,1.0,KR,1569344983.0,106.0,37.57,126.98,59.0,1.12
139,kyabe,88.0,TD,1569345185.0,84.0,9.45,18.94,77.3,2.48
140,fort nelson,75.0,CA,1569345185.0,75.0,58.81,-122.69,44.6,3.36
141,dunmore east,75.0,IE,1569345185.0,93.0,52.15,-6.99,61.0,18.34
142,whitehorse,75.0,CA,1569344959.0,86.0,60.72,-135.06,41.0,3.36
143,sitka,25.0,US,1569345185.0,57.0,37.17,-99.65,87.01,8.01
144,vanimo,71.0,PG,1569345186.0,73.0,-2.67,141.3,82.16,3.6
145,iberia,17.0,PE,1569345187.0,23.0,-11.41,-69.49,100.16,4.23
146,dikson,100.0,RU,1569345187.0,94.0,73.51,80.55,36.8,23.24
147,ilo,75.0,PE,1569345187.0,82.0,-17.65,-71.34,66.2,9.17
148,cobija,40.0,BR,1569345187.0,49.0,-11.02,-68.77,93.2,3.36
149,porto murtinho,28.0,BR,1569345067.0,23.0,-21.7,-57.88,100.7,7.72
150,pisco,90.0,PE,1569345188.0,30.0,-13.71,-76.2,71.6,9.17
151,klaksvik,100.0,FO,1569345188.0,100.0,62.23,-6.59,51.8,23.04
152,talnakh,75.0,RU,1569345066.0,86.0,69.49,88.39,41.0,15.66
153,clyde river,90.0,CA,1569345189.0,74.0,70.47,-68.59,35.6,2.24
154,touros,40.0,BR,1569345189.0,54.0,-5.2,-35.46,84.2,18.34
155,bolgar,90.0,RU,1569345189.0,70.0,54.97,49.03,42.8,6.71
156,nocupetaro,4.0,MX,1569345189.0,70.0,19.05,-101.15,78.74,3.65
157,faanui,64.0,PF,1569345189.0,78.0,-16.48,-151.75,79.82,20.42
158,lasa,20.0,CY,1569345190.0,73.0,34.92,32.53,75.2,8.05
159,lata,18.0,IN,1569345080.0,93.0,30.78,78.62,35.72,1.21
160,lokosovo,98.0,RU,1569345190.0,89.0,61.13,74.84,35.18,16.64
161,tiverton,40.0,GB,1569345190.0,93.0,50.9,-3.49,62.01,9.17
162,ucluelet,75.0,CA,1569345147.0,100.0,48.94,-125.55,60.01,2.24
163,tuatapere,100.0,NZ,1569345190.0,90.0,-46.13,167.69,42.01,8.01
164,arcata,1.0,US,1569345181.0,77.0,40.87,-124.08,64.99,3.36
165,magadan,100.0,RU,1569345191.0,89.0,59.56,150.8,38.6,27.81
166,san cristobal,13.0,HN,1569345191.0,56.0,14.68,-86.92,84.68,2.73
167,alofi,97.0,NU,1569345014.0,93.0,-19.06,-169.92,62.6,1.12
168,oriximina,55.0,BR,1569345191.0,45.0,-1.77,-55.87,93.86,4.88
169,plettenberg bay,86.0,ZA,1569345181.0,88.0,-34.05,23.37,54.26,8.99
170,laguna,40.0,BZ,1569345191.0,74.0,16.17,-88.94,86.0,4.7
171,kara,20.0,TG,1569345191.0,74.0,9.55,1.2,80.6,3.36
172,thompson,75.0,CA,1569345128.0,54.0,55.74,-97.86,57.2,21.92
173,bulawayo,7.0,ZW,1569345191.0,77.0,-20.16,28.59,62.9,17.78
174,hirara,9.0,JP,1569345192.0,79.0,24.8,125.28,76.58,17.13
175,sao jose da coroa grande,20.0,BR,1569345192.0,62.0,-8.9,-35.15,80.0,9.8
176,amiens,75.0,FR,1569345192.0,88.0,49.89,2.3,64.4,6.93
177,mesesenii de jos,78.0,RO,1569345192.0,40.0,47.15,22.98,68.0,6.93
178,yulara,2.0,AU,1569345192.0,81.0,-25.24,130.99,51.8,4.7
179,byron bay,90.0,AU,1569345193.0,77.0,-28.65,153.62,64.0,1.1
180,mangrol,33.0,IN,1569345193.0,91.0,25.33,76.51,76.76,5.23
181,chitrakonda,100.0,IN,1569345193.0,96.0,18.12,82.08,70.82,3.13
182,mariental,90.0,BR,1569345193.0,72.0,-25.72,-49.65,66.99,6.93
183,port hedland,29.0,AU,1569345193.0,77.0,-20.31,118.58,62.6,5.82
184,fare,31.0,PF,1569345193.0,78.0,-16.7,-151.02,79.46,18.88
185,port lincoln,5.0,AU,1569345194.0,73.0,-34.72,135.86,54.98,11.74
186,topraisar,90.0,RO,1569345194.0,88.0,44.01,28.45,64.99,6.93
187,mareeba,43.0,AU,1569345194.0,78.0,-16.99,145.42,71.6,8.05
188,mumias,98.0,KE,1569345194.0,88.0,0.34,34.49,66.68,5.1
189,salalah,75.0,OM,1569345010.0,83.0,17.01,54.1,82.4,8.05
190,kurilsk,9.0,RU,1569345195.0,74.0,45.23,147.88,55.52,19.01
191,san andres,11.0,PH,1569345195.0,91.0,13.32,122.68,75.68,3.44
192,namibe,71.0,AO,1569345195.0,86.0,-15.19,12.15,69.56,5.32
193,mar del plata,53.0,AR,1569345196.0,31.0,-46.43,-67.52,68.12,20.07
194,dzilam gonzalez,89.0,MX,1569345196.0,74.0,21.28,-88.93,82.88,10.02
195,lakatoro,100.0,VU,1569345196.0,73.0,-16.11,167.42,74.96,16.64
196,san quintin,40.0,PH,1569345196.0,86.0,17.54,120.52,72.98,4.52
197,garowe,28.0,SO,1569345196.0,32.0,8.41,48.48,87.56,8.84
198,mandalgovi,7.0,MN,1569345196.0,27.0,45.76,106.27,57.32,7.07
199,kaitangata,83.0,NZ,1569345196.0,79.0,-46.28,169.85,37.99,1.99
200,champerico,40.0,MX,1569345197.0,69.0,16.38,-93.6,80.6,3.36
201,las cruces,20.0,CL,1569345197.0,76.0,-33.5,-71.62,57.2,4.7
202,huron,1.0,US,1569345120.0,77.0,44.36,-98.21,75.2,9.1
203,anqiu,10.0,CN,1569345197.0,94.0,36.48,119.21,61.28,5.97
204,polson,90.0,US,1569345197.0,62.0,47.69,-114.16,60.01,10.29
205,makinsk,16.0,KZ,1569345197.0,79.0,52.63,70.42,36.08,7.83
206,wanning,75.0,AT,1569345197.0,82.0,48.64,13.53,61.0,3.36
207,tura,100.0,RU,1569345198.0,84.0,64.27,100.22,40.4,17.6
208,burgeo,100.0,CA,1569345198.0,79.0,47.61,-57.61,54.08,11.92
209,sola,54.0,TZ,1569345198.0,35.0,-3.17,33.8,78.74,3.98
210,lexington park,40.0,US,1569344986.0,41.0,38.26,-76.45,82.4,8.05
211,kuito,35.0,AO,1569345198.0,37.0,-12.38,16.94,69.92,2.26
212,yaan,68.0,NG,1569345198.0,88.0,7.38,8.57,78.2,3.91
213,wewak,68.0,PG,1569345199.0,87.0,-3.55,143.63,77.12,4.34
214,cristalina,17.0,BR,1569345199.0,21.0,-16.77,-47.61,94.22,4.05
215,tommot,32.0,RU,1569345199.0,94.0,58.97,126.27,28.88,1.72
216,veinticinco de mayo,93.0,AR,1569345199.0,54.0,-27.38,-54.75,75.99,5.79
217,flinders,40.0,AU,1569345199.0,66.0,-34.58,150.85,53.01,5.82
218,mahebourg,40.0,MU,1569345199.0,88.0,-20.41,57.7,71.6,4.7
219,tasiilaq,75.0,GL,1569345200.0,87.0,65.61,-37.64,42.8,5.82
220,hasaki,75.0,JP,1569345200.0,83.0,35.73,140.83,73.4,8.05
221,gazli,16.0,UZ,1569345200.0,19.0,40.13,63.45,67.04,11.86
222,santa isabel,1.0,MX,1569345200.0,36.0,32.63,-115.58,81.0,6.93
223,hervey bay,75.0,AU,1569345200.0,82.0,-25.3,152.85,64.4,6.93
224,mapastepec,100.0,MX,1569345200.0,70.0,15.44,-92.9,84.5,4.83
225,cururupu,32.0,BR,1569345201.0,61.0,-1.82,-44.87,86.84,4.47
226,dalby,89.0,AU,1569345201.0,82.0,-27.18,151.26,55.99,3.29
227,faya,40.0,SA,1569345201.0,38.0,18.39,42.45,78.8,12.75
228,manavalakurichi,75.0,IN,1569345201.0,83.0,8.13,77.3,80.6,2.24
229,ahuimanu,20.0,US,1569345201.0,69.0,21.44,-157.84,80.6,13.87
230,guaruja,75.0,BR,1569344924.0,60.0,-23.99,-46.26,71.6,11.41
231,yegorlykskaya,28.0,RU,1569345201.0,77.0,46.56,40.65,49.04,9.31
232,ahipara,34.0,NZ,1569345201.0,100.0,-35.17,173.16,46.99,27.67
233,lensk,92.0,RU,1569345202.0,94.0,60.71,114.91,41.12,7.54
234,rawson,20.0,AR,1569345114.0,30.0,-43.3,-65.11,73.7,23.44
235,matagami,93.0,NG,1569345202.0,92.0,9.67,8.4,73.16,3.89
236,sayyan,73.0,YE,1569345202.0,58.0,15.17,44.32,74.24,3.31
237,coruripe,58.0,BR,1569345202.0,65.0,-10.12,-36.18,79.82,12.46
238,bandarbeyla,64.0,SO,1569345203.0,70.0,9.49,50.81,76.58,17.22
239,kapit,77.0,MY,1569345203.0,98.0,2.02,112.94,73.16,0.94
240,elat,83.0,CM,1569345203.0,96.0,2.91,11.16,70.1,3.91
241,coquimbo,40.0,CL,1569344987.0,62.0,-29.95,-71.34,59.0,6.93
242,marzuq,52.0,YE,1569345204.0,23.0,14.4,46.47,79.46,3.06
243,sinnamary,4.0,GF,1569345204.0,76.0,5.38,-52.96,82.7,10.94
244,qasigiannguit,75.0,GL,1569345204.0,86.0,68.82,-51.19,37.4,5.82
245,fallon,1.0,US,1569345066.0,55.0,46.84,-105.12,64.0,16.11
246,the valley,75.0,AI,1569345179.0,88.0,18.22,-63.06,81.0,16.11
247,winslow,40.0,GB,1569345204.0,68.0,51.94,-0.88,66.2,9.17
248,correntina,81.0,BR,1569345204.0,23.0,-13.34,-44.63,92.06,10.51
249,atambua,57.0,ID,1569345204.0,80.0,-9.11,124.89,78.02,9.89
250,salinas,1.0,US,1569345196.0,53.0,36.67,-121.66,82.0,8.05
251,inhambane,75.0,MZ,1569344990.0,83.0,-23.87,35.38,71.6,4.7
252,abha,40.0,SA,1569344947.0,38.0,18.22,42.5,78.8,12.75
253,artsyz,32.0,UA,1569345205.0,90.0,46.0,29.43,57.5,7.78
254,zavitinsk,5.0,RU,1569345205.0,67.0,50.11,129.44,36.08,7.85
255,madison heights,40.0,US,1569345205.0,47.0,42.49,-83.11,75.99,12.75
256,antalaha,96.0,MG,1569345205.0,99.0,-14.9,50.28,65.6,1.66
257,bathsheba,20.0,BB,1569345205.0,70.0,13.22,-59.52,87.8,14.99
258,morant bay,40.0,JM,1569345206.0,70.0,17.88,-76.41,87.8,8.05
259,moron,100.0,HT,1569345206.0,82.0,18.56,-74.26,81.62,14.16
260,ebebiyin,57.0,GQ,1569345206.0,98.0,2.15,11.34,70.46,4.88
261,provost,13.0,CA,1569345206.0,51.0,52.35,-110.26,55.34,19.6
262,san patricio,41.0,PY,1569345206.0,39.0,-26.98,-56.83,85.22,6.78
263,vestmannaeyjar,90.0,IS,1569345206.0,100.0,63.44,-20.27,50.0,11.41
264,tilichiki,100.0,RU,1569345207.0,84.0,60.47,166.1,33.02,9.75
265,freeport,40.0,BS,1569345207.0,65.0,26.54,-78.7,82.4,10.29
266,pervomaysk,80.0,RU,1569345207.0,92.0,54.87,43.81,33.56,4.68
267,port blair,100.0,IN,1569345207.0,78.0,11.67,92.75,81.62,7.96
268,aykhal,90.0,RU,1569345208.0,100.0,65.95,111.51,33.8,2.24
269,dingle,22.0,PH,1569345208.0,91.0,11.0,122.67,74.78,4.74
270,caxito,75.0,BR,1569345208.0,49.0,-22.65,-42.51,73.4,17.22
271,yerbogachen,26.0,RU,1569345208.0,92.0,61.28,108.01,35.9,4.7
272,daru,65.0,PG,1569345208.0,84.0,-9.07,143.21,74.24,8.68
273,bogorodskoye,44.0,RU,1569345208.0,79.0,52.37,140.44,33.2,13.15
274,puerto escondido,90.0,MX,1569345209.0,57.0,15.86,-97.07,78.8,6.49
275,simbahan,84.0,PH,1569345209.0,72.0,6.3,120.58,82.34,2.66
276,hammerfest,75.0,NO,1569345209.0,80.0,70.66,23.68,41.0,11.41
277,copiapo,75.0,CL,1569345209.0,67.0,-27.37,-70.33,57.2,6.93
278,yako,24.0,BF,1569345209.0,46.0,12.96,-2.26,87.2,2.8
279,lompoc,1.0,US,1569345209.0,24.0,34.64,-120.46,89.6,10.29
280,manono,100.0,CD,1569345210.0,61.0,-7.3,27.4,78.38,1.66
281,lao cai,57.0,VN,1569345210.0,79.0,22.48,103.95,56.96,4.23
282,college,1.0,US,1569345210.0,86.0,64.86,-147.8,35.01,5.82
283,bone,20.0,DE,1569345210.0,63.0,51.97,12.14,66.2,5.82
284,wajima,39.0,JP,1569345211.0,59.0,37.4,136.9,72.08,8.41
285,selcuk,75.0,TR,1569345211.0,73.0,37.95,27.37,73.4,4.7
286,portland,40.0,US,1569344973.0,41.0,43.66,-70.25,78.01,11.41
287,mahanoro,46.0,MG,1569345211.0,96.0,-19.9,48.8,66.68,2.42
288,dubrovka,75.0,RU,1569345211.0,65.0,59.85,30.93,43.0,6.71
289,cockburn town,100.0,TC,1569345211.0,85.0,21.46,-71.14,80.18,18.9
290,bandundu,64.0,CD,1569345211.0,66.0,-3.32,17.38,81.98,5.95
291,marsh harbour,17.0,BS,1569345211.0,80.0,26.54,-77.06,78.56,14.09
292,bell ville,18.0,AR,1569345212.0,26.0,-32.63,-62.69,80.36,4.76
293,ancud,40.0,CL,1569345212.0,72.0,-41.87,-73.83,60.8,5.82
294,sumbe,40.0,AO,1569345212.0,88.0,-11.2,13.84,73.4,8.05
295,sarishabari,100.0,BD,1569345212.0,86.0,24.75,89.83,78.92,6.98
296,komsomolskiy,100.0,RU,1569345054.0,96.0,67.55,63.78,33.38,18.21
297,zhigansk,99.0,RU,1569345212.0,79.0,66.77,123.37,35.36,8.32
298,axim,85.0,GH,1569345213.0,88.0,4.87,-2.24,77.48,9.89
299,ostrovnoy,99.0,RU,1569345213.0,84.0,68.05,39.51,35.72,15.23
300,barabinsk,94.0,RU,1569345213.0,78.0,55.35,78.35,40.58,9.75
301,scottsbluff,1.0,US,1569345009.0,32.0,41.87,-103.67,73.99,14.99
302,mporokoso,44.0,ZM,1569345214.0,24.0,-9.37,30.12,71.54,3.31
303,bull savanna,31.0,JM,1569345214.0,71.0,17.89,-77.59,85.76,10.51
304,juegang,84.0,CN,1569345214.0,64.0,32.31,121.18,73.99,2.46
305,olginskaya,61.0,RU,1569345214.0,68.0,45.94,38.55,56.06,13.89
306,bako,22.0,BF,1569345214.0,42.0,12.29,-0.73,90.26,6.64
307,santa isabel do rio negro,81.0,BR,1569345214.0,36.0,-0.41,-65.02,96.02,3.51
308,adeje,98.0,NG,1569345215.0,82.0,5.68,5.76,76.94,8.21
309,bien hoa,40.0,VN,1569345097.0,79.0,10.95,106.82,84.2,4.7
310,dubreka,75.0,GN,1569345215.0,66.0,9.79,-13.52,87.8,6.93
311,iquitos,90.0,PE,1569345028.0,319.0,-3.75,-73.25,42.8,5.82
312,ekhabi,100.0,RU,1569345215.0,69.0,53.51,142.97,47.78,39.57
313,znamenskoye,98.0,RU,1569345216.0,88.0,57.13,73.82,36.98,6.26
314,cayenne,40.0,GF,1569345216.0,49.0,4.94,-52.33,91.4,8.05
315,kupang,96.0,ID,1569345216.0,84.0,-10.16,123.6,77.12,15.46
316,la palma,70.0,CO,1569345216.0,53.0,5.36,-74.39,85.58,3.4
317,huarmey,67.0,PE,1569345217.0,93.0,-10.07,-78.15,61.64,12.01
318,aleksandrov gay,65.0,RU,1569345217.0,52.0,50.14,48.57,44.54,5.17
319,grindavik,75.0,IS,1569345218.0,100.0,63.84,-22.43,53.6,17.22
320,varkkallai,75.0,IN,1569345219.0,83.0,8.73,76.71,80.6,2.24
321,phan thiet,12.0,VN,1569345219.0,94.0,10.93,108.1,73.16,3.02
322,san policarpo,35.0,PH,1569345219.0,90.0,12.18,125.51,75.5,6.4
323,flin flon,20.0,CA,1569345220.0,54.0,54.77,-101.88,55.4,13.87
324,batagay,90.0,RU,1569345220.0,96.0,67.65,134.64,32.12,1.88
325,sao felix do xingu,75.0,BR,1569345220.0,26.0,-6.64,-51.99,99.62,5.37
326,san nicolas,20.0,PH,1569345221.0,78.0,13.93,120.95,82.4,2.24
327,pueblo,1.0,US,1569345221.0,11.0,38.25,-104.61,82.4,10.29
328,ha tinh,22.0,VN,1569345044.0,80.0,18.33,105.9,69.92,3.44
329,semenivka,61.0,UA,1569345221.0,72.0,52.18,32.58,37.34,1.39
330,beyneu,79.0,KZ,1569345221.0,57.0,45.32,55.19,54.8,8.79
331,ewa beach,20.0,US,1569345222.0,69.0,21.32,-158.01,80.6,13.87
332,kibakwe,29.0,TZ,1569345222.0,54.0,-6.71,36.37,71.0,7.92
333,alekseyevsk,35.0,RU,1569345222.0,93.0,57.84,108.35,38.24,2.98
334,san ignacio,95.0,PE,1569344974.0,38.0,-5.15,-79.0,82.7,3.38
335,havelock,40.0,US,1569345222.0,58.0,34.88,-76.9,87.01,5.82
336,indramayu,69.0,ID,1569345222.0,95.0,-4.05,103.78,66.32,3.0
337,pacific grove,1.0,US,1569345172.0,53.0,36.62,-121.92,81.0,8.05
338,coihaique,75.0,CL,1569345223.0,51.0,-45.58,-72.07,62.6,5.82
339,kirakira,100.0,SB,1569345223.0,88.0,-10.46,161.92,77.3,9.57
340,lebanon,75.0,US,1569345223.0,53.0,40.34,-76.42,75.99,12.75
341,kamenka,78.0,MD,1569345224.0,68.0,48.03,28.7,54.0,12.48
342,mawlaik,100.0,MM,1569345224.0,99.0,23.63,94.42,68.48,0.18
343,batemans bay,91.0,AU,1569345224.0,87.0,-35.71,150.18,46.0,4.0
344,salinopolis,6.0,BR,1569345224.0,81.0,-0.61,-47.36,80.54,19.66
345,santa elena,90.0,EC,1569345224.0,78.0,-2.23,-80.86,75.2,10.13
346,tongzi,100.0,CN,1569345225.0,91.0,28.78,105.09,63.98,2.55
347,makakilo city,20.0,US,1569345225.0,69.0,21.35,-158.09,80.6,13.87
348,kirensk,35.0,RU,1569345225.0,93.0,57.78,108.12,38.24,2.98
349,muros,40.0,ES,1569345225.0,72.0,42.77,-9.06,66.0,8.05
350,glenwood springs,1.0,US,1569345226.0,26.0,39.55,-107.33,64.0,3.36
351,kruisfontein,81.0,ZA,1569345226.0,82.0,-34.0,24.73,50.84,7.25
352,macklin,17.0,CA,1569345226.0,51.0,52.34,-109.94,55.7,22.57
353,mutis,90.0,CO,1569345226.0,79.0,6.23,-77.4,78.92,5.39
354,tondano,20.0,ID,1569345227.0,88.0,1.3,124.91,73.4,2.24
355,tevaitoa,31.0,PF,1569345227.0,78.0,-16.78,-151.5,79.46,18.88
356,sharkan,88.0,RU,1569345227.0,89.0,57.3,53.87,34.0,1.01
357,a coruna,40.0,ES,1569345227.0,60.0,43.37,-8.4,68.0,8.05
358,shancheng,97.0,CN,1569345228.0,70.0,26.9,117.17,59.66,1.5
359,bodden town,20.0,KY,1569345228.0,66.0,19.28,-81.25,91.4,8.05
360,sergeyevka,22.0,KZ,1569345228.0,79.0,53.88,67.42,38.24,10.11
361,hondo,40.0,US,1569345229.0,55.0,29.35,-99.14,93.0,10.29
362,blagoyevo,99.0,RU,1569345229.0,92.0,63.37,47.92,36.26,7.4
363,swan hill,64.0,AU,1569345229.0,87.0,-35.34,143.56,45.26,4.07
364,ilulissat,75.0,GL,1569344968.0,86.0,69.22,-51.1,37.4,3.36
365,booue,93.0,GA,1569345229.0,93.0,-0.09,11.94,75.86,4.23
366,xining,51.0,CN,1569345229.0,62.0,36.62,101.77,40.04,2.64
367,panacan,40.0,PH,1569345230.0,83.0,7.15,125.66,78.8,2.24
368,danilovka,89.0,RU,1569345230.0,58.0,50.35,44.12,42.74,4.72
369,ferrol,40.0,ES,1569345230.0,60.0,43.48,-8.23,68.0,8.05
370,tamsweg,75.0,AT,1569345230.0,63.0,47.13,13.81,66.2,4.7
371,grimshaw,20.0,CA,1569345231.0,66.0,56.19,-117.61,54.0,9.17
372,nataga,78.0,CO,1569345231.0,46.0,2.54,-75.81,74.96,6.15
373,kjellerup,99.0,DK,1569345002.0,87.0,56.29,9.44,60.8,5.82
374,damara,20.0,CF,1569345231.0,62.0,4.96,18.7,89.6,2.24
375,belmonte,57.0,PT,1569345232.0,74.0,40.36,-7.35,66.99,8.01
376,rapla,90.0,EE,1569345232.0,87.0,59.0,24.8,48.2,2.24
377,bolshoye murashkino,100.0,RU,1569345232.0,89.0,55.78,44.78,35.54,9.15
378,oga,75.0,IT,1569345232.0,53.0,46.46,10.35,53.6,12.75
379,saint-francois,42.0,FR,1569345232.0,60.0,46.42,3.91,71.6,9.17
380,meadow lake,75.0,CA,1569345233.0,66.0,54.13,-108.44,51.8,14.99
381,ati,83.0,TD,1569345233.0,28.0,13.21,18.34,96.38,8.34
382,shubarkuduk,32.0,KZ,1569345233.0,57.0,49.15,56.49,42.56,4.27
383,chateau-gontier,40.0,FR,1569345234.0,68.0,47.83,-0.7,68.0,12.75
384,jorpeland,75.0,NO,1569345234.0,62.0,59.02,6.04,59.0,4.7
385,anshun,96.0,CN,1569345085.0,77.0,26.25,105.93,56.24,4.03
386,binga,41.0,ZW,1569345235.0,25.0,-17.62,27.34,76.58,4.43
387,caravelas,95.0,BR,1569345096.0,70.0,-17.73,-39.27,72.08,14.38
388,hualmay,76.0,PE,1569345235.0,93.0,-11.1,-77.61,61.82,13.6
389,aklavik,75.0,CA,1569345197.0,86.0,68.22,-135.01,39.2,3.36
390,pangnirtung,90.0,CA,1569345236.0,93.0,66.15,-65.72,37.4,9.17
391,la tuque,100.0,CA,1569345236.0,92.0,47.44,-72.79,51.38,5.57
392,sisimiut,4.0,GL,1569345138.0,84.0,66.94,-53.67,39.5,23.11
393,meulaboh,99.0,ID,1569345052.0,81.0,4.14,96.13,80.18,4.85
394,keuruu,90.0,FI,1569345236.0,86.0,62.26,24.71,41.0,2.24
395,levokumskoye,100.0,RU,1569345236.0,76.0,44.82,44.66,58.22,13.31
396,baykit,87.0,RU,1569345237.0,94.0,61.68,96.39,39.32,9.57
397,nilanga,100.0,IN,1569345237.0,89.0,18.12,76.75,75.14,9.22
398,larsnes,75.0,NO,1569345237.0,87.0,62.2,5.58,53.6,8.05
399,pahrump,1.0,US,1569345209.0,19.0,36.21,-115.98,82.0,14.99
400,marawi,72.0,PH,1569345237.0,87.0,8.0,124.29,75.99,7.0
401,diamantino,51.0,BR,1569345237.0,25.0,-14.4,-56.44,100.7,2.66
402,tlaxco,20.0,MX,1569345238.0,56.0,19.61,-98.12,68.0,4.7
403,iquique,90.0,CL,1569345238.0,67.0,-20.22,-70.14,60.8,6.93
404,karratha,12.0,AU,1569345238.0,68.0,-20.74,116.85,63.8,7.78
405,beidao,33.0,CN,1569345238.0,77.0,34.57,105.89,50.48,3.11
406,boshnyakovo,38.0,RU,1569345238.0,61.0,49.65,142.17,49.76,26.17
407,kiama,40.0,AU,1569345238.0,66.0,-34.67,150.86,53.01,5.82
408,paamiut,71.0,GL,1569345239.0,83.0,61.99,-49.67,41.12,28.1
409,lodja,93.0,CD,1569345239.0,79.0,-3.52,23.6,76.22,3.83
410,hobyo,94.0,SO,1569345239.0,81.0,5.35,48.53,76.58,27.85
411,verkhnevilyuysk,100.0,RU,1569345240.0,90.0,63.45,120.31,36.08,3.47
412,masvingo,37.0,ZW,1569345240.0,79.0,-20.08,30.83,64.34,10.36
413,mount gambier,40.0,AU,1569344990.0,93.0,-37.83,140.78,42.8,6.93
414,west wendover,1.0,US,1569345240.0,45.0,40.74,-114.07,64.4,5.82
415,bilibino,50.0,RU,1569345240.0,96.0,68.06,166.44,14.66,1.72
416,aquin,82.0,HT,1569345240.0,67.0,18.28,-73.39,85.4,3.2
417,san blas,20.0,MX,1569345241.0,74.0,21.54,-105.29,78.8,3.36
418,altamira,77.0,BR,1569345036.0,30.0,-3.2,-52.21,99.08,5.82
419,nanakuli,20.0,US,1569345241.0,69.0,21.39,-158.15,80.6,13.87
420,nome,40.0,US,1569345203.0,55.0,30.04,-94.42,91.0,4.7
421,acari,40.0,BR,1569345242.0,20.0,-6.44,-36.64,97.46,17.07
422,torgau,75.0,DE,1569345242.0,72.0,51.56,13.0,66.99,3.36
423,kirando,8.0,TZ,1569345242.0,55.0,-7.37,30.62,82.16,6.76
424,brae,75.0,GB,1569345243.0,87.0,60.4,-1.35,55.4,26.4
425,burns lake,81.0,CA,1569345243.0,75.0,54.23,-125.76,44.54,10.09
426,iranshahr,20.0,IR,1569345244.0,23.0,27.21,60.69,96.8,13.87
427,rancho palos verdes,1.0,US,1569345244.0,68.0,33.75,-118.37,82.99,3.36
428,barcelos,18.0,BR,1569345196.0,40.0,-0.97,-62.93,95.66,3.69
429,thinadhoo,100.0,MV,1569345244.0,84.0,0.53,72.93,77.66,19.57
430,ponta delgada,20.0,PT,1569345244.0,60.0,37.73,-25.67,73.4,16.11
431,pyapon,82.0,MM,1569345245.0,81.0,16.29,95.68,77.66,2.06
432,isangel,100.0,VU,1569345245.0,72.0,-19.55,169.27,72.8,16.98
433,quatre cocos,40.0,MU,1569345245.0,88.0,-20.21,57.76,71.6,4.7
434,provideniya,86.0,RU,1569345245.0,86.0,64.42,-173.23,31.04,4.56
435,carballo,40.0,ES,1569345245.0,60.0,43.21,-8.69,68.0,8.05
436,antipolo,20.0,PH,1569345246.0,78.0,14.59,121.18,82.4,2.24
437,terrace bay,75.0,CA,1569345241.0,77.0,48.78,-87.1,60.8,6.93
438,grahamstown,52.0,ZA,1569345246.0,69.0,-33.31,26.53,60.01,4.0
439,beyla,84.0,GN,1569345246.0,91.0,8.69,-8.65,75.68,1.79
440,dalmatovo,50.0,RU,1569345246.0,93.0,56.26,62.94,33.02,6.91
441,aneho,20.0,TG,1569345246.0,74.0,6.23,1.6,84.2,11.41
442,berlevag,75.0,NO,1569344995.0,86.0,70.86,29.09,44.6,19.46
443,yar-sale,91.0,RU,1569345246.0,86.0,66.83,70.83,35.0,17.31
444,mayumba,43.0,GA,1569345246.0,89.0,-3.44,10.65,76.94,14.34
445,sibolga,100.0,ID,1569345247.0,79.0,1.74,98.78,81.8,8.48
446,dalhousie,90.0,CA,1569345247.0,93.0,48.06,-66.37,50.0,11.41
447,nizwa,75.0,OM,1569345247.0,54.0,22.93,57.53,77.66,4.23
448,kharabali,44.0,RU,1569345247.0,42.0,47.41,47.25,47.78,3.33
449,qaqortoq,75.0,GL,1569345248.0,28.0,60.72,-46.03,55.4,14.99
450,saint-denis,77.0,FR,1569345248.0,87.0,48.94,2.36,64.4,16.11
451,satapuala,81.0,WS,1569345248.0,94.0,-13.84,-171.98,75.0,5.01
452,guanica,66.0,PR,1569345248.0,76.0,17.97,-66.91,89.01,3.0
453,benguela,75.0,AO,1569345248.0,100.0,-12.58,13.4,71.6,4.7
454,lahan,88.0,NP,1569345249.0,80.0,26.71,86.48,76.94,3.65
